ID,TrackNum3_WellCode,CountyOfWell,Lat,Long,MapMethod,GWIC,GWIC_Method,Note,PhysicalStreet,PhysicalCity,PhysicalState,PhysicalZipCode,YrQuarter,Datum,Note_DataEntryIssues
1,1200939,Cascade,47.56741,-111.80032,,75508,Homeowner,,51 1st Ashuelot Rd,Fort Shaw,MT,59443,,No Data,
122,1300384,Broadwater,45.896261,-111.5865758,,771,Homeowner,,25 Hwy 2,Three Forks,MT,59752,,No Data,
123,1400271,Powder River,0,0,,0,,,849 Ranch Creek Rd,Biddle,MT,59314,,No Data,
124,1400275,Powder River,0,0,,0,,,849 Ranch Creek Rd,Biddle,MT,59314,,No Data,
125,1701371,Glacier,48.847266,-113.412792,,0,,,3304 Hwy 464,Babb,MT,59411,,No Data,
2,1800301,Lewis And Clark,0,0,,237206,Homeowner,,2749 Thunder Dr,Helena,MT,59601,,No Data,
1,1900033,Gallatin,45.208215,-111.283563,,214713,Homeowner,,555 Towering Pines Rd,Gallatin Gateway,MT,59730,,No Data,
126,1900147,Jefferson,0,0,,0,,,69 Piedmont Rd,Whitehall,MT,59759,,No Data,
1,1900403,Golden Valley,0,0,,0,,,984 Dean Crk Rd,Lavina,MT,59046,,No Data,
3,1900921,Yellowstone,45.9651817,-108.2058694,,0,,,2479 Nth 11th Rd,Worden,MT,59088,,No Data,
4,1901374,Jefferson,45.834944,-112.278954,,0,MSU,,33 Cox Ln,Whitehall,MT,59759,,No Data,
2,2000408,Stillwater,45.6273,-108.999168,,0,,,110 5th Ave SW,Park City,MT,59063,,No Data,
2,2100531,Cascade,47.1859,-111.8044,,0,,,29 Tower Rock Rd,Cascade,MT,59421,,No Data,
3,2200003,Carbon,45.504444,-108.925833,,0,,,700 Farewell Rd,Joliet,MT,59041,,No Data,
4,2200340,Madison,45.3024,-111.7863,,303715,Homeowner,,307 Montana Way,Ennis,MT,59729,,No Data,
5,2200426,Sanders,47.543056,-115.109167,,0,,,1484 River Rd W,Plains,MT,59859,,No Data,
6,2200430,Sanders,47.543056,-115.109167,,0,,,1484 River Rd W,Plains,MT,59859,,No Data,
7,2200525,Carbon,45.46007,-109.01456,,0,,,16 Lower Elbow Cr Rd,Joliet,MT,59041,,No Data,
3,2200526,Carbon,45.53719,-109.11913,,0,,,79 Ortiz Rd,Joliet,MT,59041,,No Data,
8,2200528,Carbon,45.2215,-109.2711,,325041,Homeowner,,62 Red Lodge Creek Rd,Red Lodge,MT,59068,,No Data,
9,2200621,Carbon,45.470846,-108.989555,,0,,,131 Carbonado Rd,Joliet,MT,59041,,No Data,
10,2200624,Carbon,45.280833,-109.196389,,0,,,123 Fox East Bench Rd,Roberts,MT,59070,,No Data,
11,2200640,Gallatin,45.8312,-111.2046,,0,,,2999 Swamp Rd,Belgrade,MT,59714,,No Data,
12,2200743,Pondera,0,0,,0,,,14167 Swifden Rd,Dupuyer,MT,59432,,No Data,
4,2200749,Pondera,48.28034,-112.159,,0,,,4745 Williams Rd,Valier,MT,59486,,No Data,
5,2200769,Pondera,48.28034,-112.159,,0,,,4754 Williams Rd,Valier,MT,59486,,No Data,
6,2200861,Teton,0,0,,0,,,792 Jacksons Corner Rd W,Fairfield,MT,59436,,No Data,
5,2200939,Park,45.423284,-110.301931,,0,,,284 Old Clyde Park Rd,Livingston,MT,59047,,No Data,
6,2200981,Dawson,47.4855556,-104.7747222,,0,,,692 County Rd 527,Bloomfield,MT,59315,,No Data,
7,2201073,Big Horn,45.737594,-107.619821,,0,MSU,,Vanzandt Rd,Hardin,MT,59034,,No Data,
7,2201101,Toole,0,0,,0,,,PO Box 227,Kevin,MT,59454,,No Data,
8,2201103,,0,0,,0,,,,,,0,,,
9,2201104,Toole,0,0,,0,,,PO Box 227,Kevin,MT,59454,,No Data,
10,2201107,Toole,0,0,,0,,,PO Box 227,Kevin,MT,59454,,No Data,
11,2201111,Glacier,48.64266,-112.44944,,0,,,126 Henderson Rd,Cut Bank,MT,59427,,No Data,
12,2201112,Toole,0,0,,0,,,PO Box 139,Kevin,MT,59454,,No Data,
13,2201113,Toole,0,0,,0,,,PO Box 227,Kevin,MT,59454,,No Data,
8,2201185,Lewis And Clark,0,0,,0,,,6200 Copper Rose Dr,Helena,MT,59602,,No Data,
9,2201203,Lewis And Clark,0,0,,0,MSU,,1009 Logan St,Helena,MT,59601,,No Data,
127,2201220,Powder River,0,0,,0,,,849 Ranch Creek Rd,Biddle,MT,59314,,No Data,
14,2201285,Stillwater,0,0,,0,,,639 Hwy 10,Columbus,MT,59019,,No Data,
128,2201293,Powder River,0,0,,0,,,849 Ranch Creek Rd,Biddle,MT,59314,,No Data,
129,2201334,Phillips,48.907515,-107.570402,,0,,,2979 Anderson Cutacross Rd,Whitewater,MT,59544,,No Data,
13,2201411,Ravalli,46.444793,-114.042369,,0,,,812 Willoughby Ln,Stevensville,MT,59870,,No Data,
15,2201416,Gallatin,0,0,,0,,,20 Sharptail Pl,Three Forks,MT,59752,,No Data,
10,2201458,Jefferson,0,0,,0,MSU,,140 Hwy 282,Jefferson City,MT,59638,,No Data,
11,2201497,Stillwater,45.32279,-109.31168,,0,MSU,,38 Jackstone Creek Rd,Absarokee,MT,59001,,No Data,
12,2201499,Stillwater,45.56189,-109.215252,,0,,,387 Shane Ridge Rd,Columbus,MT,59019,,No Data,
14,2201529,Musselshell,0,0,,0,,,807 Majerus Rd,Roundup,MT,59072,,No Data,
130,2201569,Golden Valley,46.295164,-108.938288,,0,,,1 Main St,Lavina,MT,59046,,No Data,
13,2201570,Cascade,47.3601928,-110.9073628,,0,MSU,,8 Niel Creek Rd,Belt,MT,59412,,No Data,
14,2201575,Pondera,0,0,,0,,,400 New Miami Colony Ln,Conrad,MT,59425,,No Data,
15,2201584,Cascade,47.55177,-111.57869,,0,,,269 US Hwy 89,Vaughn,MT,59487,,No Data,
16,2201593,Madison,45.690527,-112.284063,,0,,,PO Box 45,Silver Star,MT,59751,,No Data,
15,2201614,Judith Basin,46.826808,-109.834472,,0,,,3288 Buffalo Canyon Rd,Buffalo,MT,59418,,No Data,
16,2201631,Richland,47.729616,-104.17942,,0,,,1770 Pishkin Dr,Sidney,MT,59270,,No Data,
17,2201654,Madison,45.34952,-111.70515,,121838,Homeowner,,93 Jeffers Rd,Ennis,MT,59729,,No Data,
18,2201689,Carter,45.479978,-104.220181,,0,,,1011 Sheep Mountain Rd,Capitol,MT,59319,,No Data,
131,2201695,Carter,0,0,,0,,,21 Kim Curry Rd,Ekalaka,MT,59324,,No Data,
17,2201704,Jefferson,0,0,,0,,,11 Bonanza Pl,Whitehall,MT,59759,,No Data,
19,2201705,Cascade,47.14343,-110.60544,,0,,,3104 2nd Ave S,Great Falls,MT,59405,,No Data,
16,2201723,Beaverhead,0,0,,0,,,10 Ponderosa Rd,Melrose,MT,59743,,No Data,
18,2201756,Fergus,0,0,,0,,,603 Sunnyside Rd,Denton,MT,59430,,No Data,
20,2201781,Cascade,47.442671,-111.508658,,0,,,48 ULM Vaughn Rd,Ulm,MT,59485,,No Data,
21,2201786,Cascade,47.442671,-111.508658,,0,,,48 Ulm Vaughn Rd,Ulm,MT,59485,,No Data,
22,2201788,Madison,44.88077,-111.57125,,170566,Homeowner,,7 Sturdy Ln,Cameron,MT,59720,,No Data,
17,2201804,Madison,45.37745,-111.69836,,0,,,307 Jeffers Rd,Ennis,MT,59729,,No Data,
23,2201811,Sheridan,0,0,,0,,,1823 Hwy 5,Red Stone,MT,59257,,No Data,
24,2201812,Deer Lodge,46.190585,-113.259275,,163974,Homeowner,,387 Fire Ln,Anaconda,MT,59711,,Other,
132,2201819,Richland,0,0,,0,,,PO Box 118,Richey,MT,59259,,No Data,
18,2201834,Jefferson,0,0,,0,,,1173 MT Hwy 55,Whitehall,MT,59759,,No Data,
25,2201837,Cascade,47.442671,-111.508658,,0,,,48 Ulm Vaughn Rd,Ulm,MT,59485,,No Data,
19,2201840,Sheridan,48.776018,-104.547624,,0,,,601 James Dr,Plentywood,MT,59254,,No Data,
20,2201849,Prairie,0,0,,0,MSU,,309 McDonald Ave S Box 312,Terry,MT,59349,,No Data,
19,2201871,Sanders,47.515628,-114.80017,,0,,,628 Hwy 28,Plains,MT,59859,,No Data,
26,2201887,Golden Valley,46.293293,-108.938222,,0,,,207 Main,Lavina,MT,59046,,No Data,
27,2201905,Judith Basin,0,0,,0,,,313 2nd Ave S,Stanford,MT,59479,,No Data,
21,2201906,Fergus,0,0,,0,,,14365 Bear Springs Rd,Denton,MT,59430,,No Data,
133,2201910,Judith Basin,47.111235,-110.247056,,0,,,2088 Stagecoach Rd,Stanford,MT,59479,,No Data,
134,2201912,Meagher,46.55289,-110.88372,,0,,,77 Lind Ln,White Sulphur Springs,MT,59645,,No Data,
20,2201913,Judith Basin,47.2541,-110.1712,,251266,Homeowner,,1007 North Seven Mile Rd,Stanford,MT,59479,,No Data,
21,2201929,Gallatin,45.6698,-111.031,,46498,Homeowner,,425 Ice Pond Rd,Bozeman,MT,59715,,No Data,
135,2201959,Granite,46.251389,-113.340556,,0,,,37 Porters Corner Ln,Philipsburg,MT,59858,,No Data,
22,2201962,Granite,0,0,,0,,,24 Marmot Rd,Philipsburg,MT,59858,,No Data,
28,2201963,Yellowstone,0,0,,0,,,836 Ollie St,Billings,MT,59106,,No Data,
136,2201971,Granite,46.209811,-113.338039,,0,,,135 Trapper Rdg,Philipsburg,MT,59858,,No Data,
23,2201978,Rosebud,0,0,,0,,,2847 Old Hwy 10,Forsyth,MT,59327,,No Data,
137,2201979,Madison,0,0,,133236,Homeowner,,390 Middle Rd,Sheridan,MT,59749,,No Data,
24,2201987,Yellowstone,45.72725,-108.64167,,0,MSU,,4970 Anna Cir,Billings,MT,59106,,No Data,
25,2201997,Madison,45.275066,-111.8208952,,0,,,195 N Timber Ln,Ennis,MT,59729,,No Data,
29,2202026,Teton,0,0,,0,,,792 Jacksons Corner Rd W,Fairfield,MT,59436,,No Data,
30,2202034,Rosebud,0,0,,0,,,4472 Hwy 39,Forsyth,MT,59327,,No Data,
31,2202045,Rosebud,0,0,,0,,,4472 Hwy 39,Forsyth,MT,59327,,No Data,
22,2202059,Phillips,48.894121,-108.249777,,0,,,3211 Cowan Rd,Turner,MT,59542,,No Data,
32,2202067,Rosebud,0,0,,0,,,4472 Hwy 39,Forsyth,MT,59327,,No Data,
26,2202073,Yellowstone,0,0,,0,,,4844 US Hwy 3,Billings,MT,59106,,No Data,
23,2202081,Blaine,0,0,,0,,,4635 New Hope Rd,Chinook,MT,59523,,No Data,
27,2202088,Blaine,48.4347222,-109.1694444,,0,,,1075 Calm Your Soul Ln,Chinook,MT,59523,,No Data,
24,2202096,Blaine,48.176111,-109.455278,,0,,,34235 Clear Creek Rd,Chinook,MT,59523,,No Data,
33,2202097,Gallatin,0,0,,0,,,16536 Henrys Dr,Bozeman,MT,59715,,No Data,
25,2202107,Hill,48.54627,-109.79088,,0,,,7447 9th St W,Havre,MT,59501,,No Data,
138,2202152,Gallatin,45.58769,-111.06867,,0,,,282 Hodgeman Canyon Dr,Bozeman,MT,59718,,No Data,
28,2202153,Gallatin,45.75658,-111.072779,,91476,Homeowner,,4562 Bannock Dr,Bozeman,MT,59715,,No Data,
29,2202188,Lincoln,48.50277,-115.86252,,0,MSU,,2323 Rabbit Creek Rd,Troy,MT,59935,,No Data,
30,2202228,Gallatin,45.6233,-110.984,,206631,Homeowner,,1970 Star Ridge Rd,Bozeman,MT,59715,,No Data,
31,2202232,Gallatin,45.73083333,-111.0516667,,0,,,869 Stonegate Dr,Bozeman,MT,59715,,No Data,
26,2202236,Gallatin,45.79879,-111.21088,,0,,,367 Hale-Bopp Ave,Belgrade,MT,59714,,No Data,
27,2300014,Gallatin,45.657942,-111.187544,,0,,,82 Lower Rainbow Rd,Bozeman,MT,59718,,No Data,
139,2300033,Teton,0,0,,0,,,66 4th Ln SW,Fairfield,MT,56436,,No Data,
34,2300040,Ravalli,46.315,-114.088056,,0,,,975 Oil Well Rd,Corvallis,MT,59828,,No Data,
32,2300052,Big Horn,0,0,,0,,,388 Long Otter Rd,Garryowen,MT,59031,,No Data,
140,2300057,Richland,0,0,,0,,,34971 County Rd 122,Sidney,MT,59270,,No Data,
35,2300065,Richland,47.7031,-104.12593,,0,,,35174 County Rd 124,Sidney,MT,59270,,No Data,
33,2300067,Flathead,0,0,,0,,,63 Twin Acres Dr,Kalispell,MT,59901,,No Data,
34,2300076,Teton,0,0,,0,,,550 7th Ln NE,Fairfield,MT,59436,,No Data,
35,2300079,Teton,47.788333,-112.1775,,0,MSU,,73 Higgins Rd,Choteau,MT,59422,,No Data,
141,2300093,Wibaux,46.9421,-104.19821,,328665,Homeowner,,48 Yates Rd W,Wibaux,MT,59353,,No Data,
36,2300095,Gallatin,45.735215,-111.206514,,144680,Homeowner,,1065 Ludwig Ln,Bozeman,MT,59718,,No Data,
37,2300096,Gallatin,45.531222,-111.257088,,0,,,11220 Front St,Manhattan,MT,59741,,No Data,
28,2300102,Ravalli,0,0,,131810,Homeowner,,246 Hilltop Dr,Hamilton,MT,59840,,No Data,
29,2300107,Gallatin,45.746083,-111.085814,,0,,,661 Sunny Acres Dr,Bozeman,MT,59718,,No Data,
36,2300108,Park,45.62985,-110.75838,,0,MSU,,91 Moose Meadow,Livingston,MT,59047,,No Data,
38,2300112,Beaverhead,45.212785,-112.5985,,138749,Homeowner,,420 Fox Ridge Dr,Dillon,MT,59725,,No Data,
39,2300117,Prairie,0,0,,0,,,118 S Wogan,Terry,MT,59349,,No Data,
40,2300132,Toole,0,0,,0,,,PO Box 227,Kevin,MT,59454,,No Data,
30,2300136,Golden Valley,0,0,,0,,,68 Coyote Creek Rd,Lavina,MT,59046,,No Data,
37,2300171,Dawson,0,0,,0,,,1362 Rd 523,Bloomfield,MT,59315,,No Data,
41,2300175,Dawson,47.086231,-104.732154,,0,,,128 B Cottonwood GRV,Glendive,MT,59330,,No Data,
38,2300178,Carter,0,0,,0,,,21 Kim Curry Rd,Ekalaka,MT,59324,,No Data,
142,2300182,Carter,0,0,,0,,,29 Kim Curry Rd,Ekalaka,MT,59324,,No Data,
143,2300190,Powder River,0,0,,0,,,9 O'Connor Rd,Powderville,MT,59345,,No Data,
42,2300193,Prairie,0,0,,0,,,104 Logan Ave,Terry,MT,59349,,No Data,
144,2300194,Carter,0,0,,0,,,29 Kim Curry Cabin,Ekalaka,MT,59324,,No Data,
39,2300197,Prairie,46.791443,-105.313736,,0,,,Behind the Post Office in Town,Terry,MT,59349,,No Data,
31,2300198,Carter,45.349436,-104.113301,,0,,,1081 Tie Creek Rd,Camp Crook,SD,57724,,No Data,
40,2300199,Fallon,0,0,,0,,,182 Sunset Tr,Baker,MT,59313,,No Data,
32,2300201,Prairie,46.6768,-105.4733,,0,,,42 Montana Rd,Terry,MT,59349,,No Data,
41,2300205,Prairie,47.07548333,-105.8009,,0,,,Prairie Country,Terry,MT,59349,,No Data,
33,2300209,Fallon,46.20935,-104.3336,,0,,,124 Wiley Butte Trl,Willard,MT,59354,,No Data,
145,2300213,Carter,0,0,,0,,,203 Kim Curry,Ekalaka,MT,59324,,No Data,
146,2300217,Powder River,0,0,,0,,,1 O'Connor Rd,Powderville,MT,59345,,No Data,
43,2300223,Fallon,46.279475,-104.414297,,319167,Homeowner,,49 Snowy Rd E,Baker,MT,59313,,No Data,
147,2300226,Carter,0,0,,0,,,221 Kim Curry Rd,Ekalaka,MT,59324,,No Data,
42,2300233,Jefferson,45.5213,-112.0028,,0,MSU,,35 Tebay Ln,Whitehall,MT,59759,,No Data,
43,2300235,Carter,0,0,,0,,,131 Senator St,Ekalaka,MT,59324,,No Data,
34,2300247,Custer,45.893462,-105.799896,,0,,,1208 Rd 621,Volborg,MT,59351,,No Data,
35,2300250,Custer,0,0,,0,,,380 Tongue River Rd,Volborg,MT,59301,,No Data,
36,2300251,Powder River,45.780112,-105.602088,,290949,Homeowner,,22 Bird Divide Rd,Volborg,MT,59351,,No Data,
44,2300258,Musselshell,46.47206,-108.566309,,0,,,195 US Hwy 87 N,Roundup,MT,59072,,No Data,
45,2300263,Custer,46.16033071,-105.7827891,,0,,,726 Tongue River Rd,Miles City,MT,59301,,No Data,
46,2300274,Sweet Grass,0,0,,0,MSU,,Grazing District Rd,Big Timber,MT,59072,,No Data,
37,2300279,Custer,46.3812,-105.8283,,0,,,5 Agate Dr,Miles City,MT,59301,,No Data,
44,2300282,Custer,0,0,,0,,,232 Kircher Cr Rd,Miles City,MT,59301,,No Data,
38,2300289,Musselshell,46.37017,-108.38438,,0,,,75 Pineview Dr,Roundup,MT,59072,,No Data,
148,2300310,Custer,46.428183,-105.791425,,0,,,116 Big Sky Ln,Miles City,MT,59301,,No Data,
45,2300312,Toole,0,0,,0,,,PO Box 227,Kevin,MT,59454,,No Data,
47,2300328,Big Horn,0,0,,0,,,PO Box 158,Lodge Grass,MT,59050,,No Data,
39,2300330,Lake,47.508492,-114.074227,,0,,,35538 Timberlane Rd,Ronan,MT,59864,,No Data,
40,2300333,Gallatin,45.887576,-111.424263,,0,,,11025 Railroad St,Manhattan,MT,59741,,No Data,
48,2300336,Gallatin,45.730331,-111.093706,,0,MSU,,4455 E Valley Center,Bozeman,MT,59718,,No Data,
46,2300337,Gallatin,45.65337,-111.02515,,0,,,2990 Sourdough Rd,Bozeman,MT,59715,,No Data,
49,2300340,,45.63888889,-107.4583333,,0,MSU,,2533 Crow River Rd,Crow Agency,MT,59022,,No Data,
41,2300342,Gallatin,45.74397,-111.17238,,0,,,615 E Cameron Bridge Rd,Bozeman,MT,59718,,No Data,
50,2300344,Big Horn,0,0,,0,MSU,,5350 River Crow Rd,Crow Agency,MT,59022,,No Data,
42,2300355,Jefferson,45.92387,-111.948474,,215628,Homeowner,,1041 Hwy,Cardwell,MT,59721,,No Data,
51,2300356,Jefferson,46.28938,-112.19602,,0,,,72 Sugarloaf Trl,Boulder,MT,59632,,No Data,
43,2300357,Gallatin,45.77437,-111.0946,,147708,Homeowner,,3375 Wildbunch Dr,Belgrade,MT,59714,,No Data,
47,2300358,Lake,47.60728,-114.1102,,0,,,35840 Spike Ct,Ronan,MT,59864,,No Data,
48,2300367,Toole,0,0,,0,,,PO Box 227,Kevin,MT,59454,,No Data,
44,2300369,Gallatin,45.57287,-111.10058,,269095,Homeowner,,388 Derek Way,Bozeman,MT,59718,,No Data,
52,2300370,Lake,47.60728,-114.1102,,0,,,35840 Spike Ct,Ronan,MT,59864,,No Data,
53,2300377,Gallatin,0,0,,0,,,76 Woodstone Way,Bozeman,MT,59718,,No Data,
149,2300379,Carter,0,0,,0,,,205 Kim Curry Rd,Ekalaka,MT,59324,,No Data,
54,2300385,Sweet Grass,45.641399,-110.18726,,97386,Homeowner,,420 W Boulder Rd,McLeod,MT,59052,,No Data,
150,2300387,Park,45.89328,-110.52379,,190162,Homeowner,,63 Cooper Ln,Clyde Park,MT,59018,,No Data,
151,2300393,Lake,0,0,,0,,,33232 Delaro Ranch Rd,Bigfork,MT,59911,,No Data,
152,2300394,Broadwater,46.335435,-111.519747,,0,,,57 Centerville Rd,Townsend,MT,59644,,No Data,
153,2300397,Lake,0,0,,0,,,37384 Songer Rd,Ronan,MT,59864,,No Data,
55,2300409,Gallatin,45.612229,-111.0923,,0,,,76 Woodstone Way,Bozeman,MT,59718,,No Data,
56,2300425,Sweet Grass,45.72638889,-110,,0,,,816 Main Boulder Rd,Big Timber,MT,59011,,No Data,
45,2300439,Ravalli,46.227268,-114.148242,,0,,,385 Winkler Ln,Hamilton,MT,59840,,No Data,
46,2300442,Broadwater,46.397518,-111.575686,,329585,Homeowner,,23 J Bar Loop,Townsend,MT,59644,,No Data,
47,2300445,Sweet Grass,45.440727,-109.594365,,92426,Homeowner,,28 River View Ln,Big Timber,MT,59011,,No Data,
48,2300447,Ravalli,46.234049,-114.125348,,0,,,431 Maki Dr,Hamilton,MT,59840,,No Data,
57,2300450,Powder River,0,0,,0,,,20 Tayler Ln,Broadus,MT,59317,,No Data,
49,2300455,Ravalli,46.644265,-114.111041,,0,,,552 Tie Chute Ln,Florence,MT,59833,,No Data,
49,2300456,Dawson,47.166224,-104.714311,,0,,,467 Hwy 16,Glendive,MT,59330,,No Data,
50,2300459,Ravalli,0,0,,0,,,5529 Eastside Hwy,Stevensville,MT,59870,,No Data,
154,2300463,Powder River,0,0,,0,,,849 Ranch Creek Rd,Biddle,MT,59314,,No Data,
58,2300472,Lake,47.717556,-114.187802,,314498,Homeowner,,35212 Rocky Point Rd,Polson,MT,59860,,No Data,
50,2300475,Dawson,0,0,,0,,,1362 Rd 523,Bloomfield,MT,59315,,No Data,
51,2300477,Custer,0,0,,0,,,74 Pumpkin Crk Rd,Volborg,MT,59351,,No Data,
59,2300493,Ravalli,46.235876,-114.128051,,128673,Homeowner,,410 Skyridge Dr,Hamilton,MT,59840,,No Data,
60,2300498,Jefferson,45.815228,-112.123008,,0,MSU,,208 Parrot Castle Rd,Whitehall,MT,59759,,No Data,
52,2300501,Teton,47.814319,-112.175604,,0,,,16 7th Ave NE,Choteau,MT,59422,,No Data,
155,2300506,Powder River,0,0,,0,,,179 Pumpkin Creek Rd,Volborg,MT,59351,,No Data,
61,2300507,Madison,45.681788,-112.188287,,0,,,5276 Mt Hwy 41 N,Silver Star,MT,59751,,No Data,
62,2300515,Custer,0,0,,0,,,167 Rd 521,Volborg,MT,59351,,No Data,
51,2300521,Gallatin,45.830594,-111.069262,,0,,,10380 Springhill Rd,Bozeman,MT,59715,,No Data,
52,2300525,Powder River,0,0,,0,,,160 Hwy 212 W,Broadus,MT,59317,,No Data,
63,2300526,Custer,45.837662,-105.678375,,213140,Homeowner,,PO Box 2,Volborg,MT,59351,,No Data,
156,2300529,Powder River,0,0,,0,,,179 Pumpkin Creek Rd,Volborg,MT,59351,,No Data,
157,2300530,Powder River,45.460623,-105.465652,,333389,Homeowner,,29 Talcott Rd,Broadus,MT,59317,,No Data,
53,2300532,Phillips,0,0,,0,,,223 Ruby Ave,Malta,MT,59538,,No Data,
158,2300534,Carter,0,0,,0,,,11 Talcott Ln,Hammond,MT,59332,,No Data,
53,2300537,Powder River,0,0,,0,,,160 Hwy 212 W,Broadus,MT,59317,,No Data,
64,2300539,Ravalli,0,0,,0,MSU,,592 Treece Gulch Rd,Stevensville,MT,59870,,No Data,
159,2300552,Phillips,0,0,,0,,,29286 Regina Rd,Malta,MT,59538,,No Data,
54,2300553,Jefferson,45.84363,-112.336748,,0,,,26 Canyon Rd,Whitehall,MT,59759,,No Data,
160,2300557,Powder River,45.101667,-105.338889,,0,,,2 School Rd,Biddle,MT,59314,,No Data,
55,2300558,Jefferson,45.86469,-112.207702,,48653,Homeowner,,34 Edwards Addition Rd,Whitehall,MT,59759,,No Data,
56,2300560,Phillips,48.791752,-107.858688,,191085,Homeowner,,153 2nd Ave E,Loring,MT,59537,,No Data,
161,2300570,Sanders,47.51549,-114.79998,,0,,,628 MT Hwy 28,Plains,MT,59859,,No Data,
57,2300572,Meagher,46.574722,-111.216667,,0,,,743 Camas Creek Rd,White Sulphur Springs,MT,59645,,No Data,
162,2300580,Gallatin,45.576907,-111.090982,,0,Homeowner,,1104 Cougar Dr,Bozeman,MT,59718,,No Data,
163,2300582,Gallatin,0,0,,58389,Homeowner,,454 Meadowlark Dr,Bozeman,MT,59718,,No Data,
164,2300592,Gallatin,45.57839,-111.08755,,0,,,1319 Cougar Dr,Bozeman,MT,59718,,No Data,
58,2300596,Jefferson,45.89466,-112.23582,,0,,,271 Hot Springs Rd,Whitehall,MT,59759,,No Data,
165,2300604,Powder River,0,0,,0,,,849 Ranch Creek Rd,Biddle,MT,59314,,No Data,
166,2300612,Gallatin,45.583916,-111.0997,,0,,,25 Pintail Ln,Bozeman,MT,59718,,No Data,
65,2300617,Gallatin,45.754357,-111.044357,,292292,Homeowner,,237 Sky Crest Dr,Bozeman,MT,59715,,No Data,
167,2300626,Gallatin,0,0,,0,,,9744 Cougar Dr,Bozeman,MT,59715,,No Data,
66,2300632,Gallatin,45.63366,-110.99591,,0,MSU,,233 Alta Vista Dr,Bozeman,MT,59715,,No Data,
168,2300634,Gallatin,45.5855,-111.101333,,0,,,82 Owl Wy,Bozeman,MT,59718,,No Data,
67,2300641,Roosevelt,0,0,,0,,,1400 Rd 2052,Culbertson,MT,59218,,No Data,
59,2300647,Richland,47.977942,-104.559416,,0,,,14365 CR 332,Culbertson,MT,59218,,No Data,
54,2300655,Carbon,45.2215,-109.2711,,325041,Homeowner,,62 Red Lodge Crk Rd,Red Lodge,MT,59068,,No Data,
68,2300662,Carbon,0,0,,0,,,488 Farewell Rd,Joliet,MT,59041,,No Data,
60,2300666,Lake,47.789286,-114.13282,,0,,,29337 Black Point,Polson,MT,59860,,No Data,
55,2300668,Lake,47.51295,-114.06255,,0,,,48110 Middle Creek Trl,Ronan,MT,59864,,No Data,
56,2300675,Gallatin,45.581076,-111.093191,,148808,Homeowner,,755 Cougar Dr,Bozeman,MT,59718,,No Data,
69,2300681,Broadwater,0,0,,0,,,708 Dry Gulch,Townsend,MT,59644,,No Data,
169,2300682,Carter,0,0,,0,,,11 Talcott Ln,Hammond,MT,59332,,No Data,
170,2300703,Sanders,47.543333,-115.109444,,0,,,1484 River Rd W,Plains,MT,59859,,No Data,
61,2300713,Meagher,46.577778,-111.228611,,0,,,835 Camas Creek Rd,White Sulphur Springs,MT,59645,,No Data,
57,2300717,Glacier,48.416667,-113.166667,,0,,,59 Dawson Dr,East Glacier,MT,59434,,No Data,
70,2300738,Ravalli,46.5866,-113.99401,,0,,,552 Ashberry Ln,Stevensville,MT,59870,,No Data,
58,2300740,Madison,45.42481,-111.73102,,0,,,4 Caddis Ct,McAllister,MT,59740,,No Data,
71,2300743,Ravalli,0,0,,0,,,1186 Palisades Pl,Victor,MT,59875,,No Data,
59,2300746,Gallatin,45.653889,-111,,0,,,2385 Arnica Dr,Bozeman,MT,59715,,No Data,
60,2300747,Gallatin,45.775556,-111.091111,,0,,,51 Dana Ln,Belgrade,MT,59714,,No Data,
61,2300749,Gallatin,0,0,,0,,,2606 Arnica Dr,Bozeman,MT,59715,,No Data,
62,2300752,Ravalli,46.47429,-114.15029,,0,,,296 Indian Prairie Lp,Victor,MT,59875,,No Data,
72,2300754,Gallatin,45.875119,-110.822022,,0,MSU,,15350 Horse Cr,Bozeman,MT,59715,,No Data,
73,2300764,Ravalli,46.636763,-114.048704,,0,,,209 Cormoret LP,Florence,MT,59833,,No Data,
171,2300772,Jefferson,45.878267,-112.087333,,317654,Homeowner,,28 Paul Gulch rd,Whitehall,MT,59759,,No Data,
62,2300773,Big Horn,0,0,,0,,,PO Box 7792,Fort Smith,MT,59035,,No Data,
74,2300778,Big Horn,45.234534,-107.514874,,0,MSU,,10755 Lodge Grass Creek Rd,Lodge Grass,MT,59050,,No Data,
75,2300779,Gallatin,45.62505,-111.05371,,205817,Homeowner,,4855 S 3rd Rd,Bozeman,MT,59715,,No Data,
76,2300781,Big Horn,0,0,,0,MSU,,21113 Hwy 451,Lodge Grass,MT,59050,,No Data,
77,2300786,Gallatin,45.864335,-111.660252,,9678,Homeowner,,10455 Gee Norman Rd,Belgrade,MT,59714,,No Data,
63,2300787,Gallatin,45.66431,-111.03065,,0,,,1417 South Church,Bozeman,MT,59715,,No Data,
64,2300791,Gallatin,45.74605,-111.10904,,292670,Homeowner,,514 Mountain View Dr,Bozeman,MT,59718,,No Data,
78,2300793,Rosebud,46.0139871,-106.6724406,,0,,,6 Cedar Village Ln,Forsyth,MT,59327,,No Data,
63,2300794,Rosebud,0,0,,0,,,T2N R42E Sec 15,Forsyth,MT,59327,,No Data,
65,2300795,Rosebud,0,0,,0,,,4472 Hwy 39,Forsyth,MT,59327,,No Data,
66,2300798,Rosebud,0,0,,0,,,4472 Hwy 39,Forsyth,MT,59327,,No Data,
67,2300800,Rosebud,0,0,,0,,,4472 Hwy 39,Forsyth,MT,59327,,No Data,
68,2300801,Rosebud,0,0,,0,,,4472 Hwy 39,Forsyth,MT,59327,,No Data,
172,2300804,Gallatin,45.646463,-111.0211,,0,,,111 Sourdough Ridge Rd,Bozeman,MT,59715,,No Data,
64,2300806,Powell,46.88288,-113.04872,,0,,,4940 Ovando-Helmville Rd,Helmville,MT,59843,,No Data,
65,2300808,Ravalli,46.481111,-114.081944,,0,,,3541 Vista View Ct,Stevensville,MT,59870,,No Data,
69,2300811,Gallatin,45.778111,-111.082889,,309352,Homeowner,,98 Splendid View Dr,Belgrade,MT,59714,,No Data,
79,2300815,Gallatin,46.67765,-111.06898,,0,MSU,,2320 W Babcock,Bozeman,MT,59771,,No Data,
80,2300824,Ravalli,46.3432229,-114.163737,,0,MSU,,248 Sheafman Creek Rd,Victor,MT,59875,,No Data,
66,2300826,Gallatin,45.57287,-111.10058,,269095,Homeowner,,388 Derek Way,Bozeman,MT,59718,,No Data,
67,2300827,Wibaux,46.976033,-104.180556,,0,,,7891 Hwy 7,Wibaux,MT,59353,,No Data,
81,2300829,Ravalli,46.296608,-114.00817,,53663,Homeowner,,922 Little Willow Creek Rd,Corvallis,MT,59828,,No Data,
82,2300832,Ravalli,0,0,,0,,,536 Grey Fox Ln,Corvallis,MT,59828,,No Data,
173,2300834,Jefferson,45.852732,-112.251255,,0,,,579 Mt Hwy 2 W,Whitehall,MT,59759,,No Data,
83,2300837,Gallatin,45.595308,-111.235813,,155386,Homeowner,,2385 Cottontail Rd,Gallatin Gateway,MT,59730,,No Data,
68,2300843,Gallatin,45.219969,-111.25983,,155406,Homeowner,,371 Grouse Ridge Dr,Gallatin Gateway,MT,59730,,No Data,
174,2300847,Broadwater,46.344,-111.320704,,0,,,111 Lippert Gulch,Townsend,MT,59644,,No Data,
70,2300861,Gallatin,45.63027,-111.01032,,0,,,9265 Trooper Trl,Bozeman,MT,59715,,No Data,
175,2300863,Broadwater,0,0,,0,,,111 Lippert Gulch,Townsend,MT,59644,,No Data,
71,2300865,Gallatin,45.55875,-111.20382,,0,,,133 Low Bench Rd,Gallatin Gateway,MT,59730,,No Data,
69,2300869,Ravalli,46.406839,-114.166245,,0,,,2356 Hamby Ln,Victor,MT,59875,,No Data,
84,2300876,Gallatin,45.774955,-111.258141,,0,,,2840 E Cedar Meadows,Manhattan,MT,59741,,No Data,
176,2300877,Gallatin,0,0,,0,,,4801 Aspen Ln,Bozeman,MT,59715,,No Data,
85,2300878,Big Horn,0,0,,0,MSU,,PO Box 207,Lodge Grass,MT,59050,,No Data,
86,2300882,Big Horn,45.44222222,-107.4002778,,0,MSU,,PO Box 72,Garryowen,MT,59031,,No Data,
87,2300885,Gallatin,45.604,-111.05191,,0,MSU,,4 Haley Rd,Bozeman,MT,59715,,No Data,
88,2300886,Yellowstone,45.7375,-108.3372222,,0,MSU,,5611 Hwy 87 E,Billings,MT,59101,,No Data,
70,2300889,Gallatin,45.626811,-110.838884,,0,,,3180 Trail Creek Rd,Bozeman,MT,59715,,No Data,
71,2300893,Gallatin,45.590222,-111.092778,,0,,,65 Cougar Dr,Bozeman,MT,59718,,No Data,
72,2300894,Wibaux,46.926667,-104.400833,,0,,,618 Ranch Access S,Wibaux,MT,59353,,No Data,
89,2300895,Gallatin,45.77481,-111.0427,,313462,Homeowner,,203 Saddle Peak Circle,Bozeman,MT,59715,,No Data,
90,2300898,Big Horn,0,0,,0,MSU,,3387 Highway 451,Garryowen,MT,59031,,No Data,
73,2300904,Gallatin,45.620182,-110.932897,,0,,,2577 Bear Canyon Rd,Bozeman,MT,59715,,No Data,
74,2300908,Gallatin,45.63276,-111.060369,,0,,,3700 Goldenstein Ln,Bozeman,MT,59715,,No Data,
75,2300912,Gallatin,45.653752,-110.991792,,0,,,1049 Tayaueshockup Rd,Bozeman,MT,59715,,No Data,
76,2300916,Gallatin,45.648562,-111.016207,,0,,,303 Donegal Dr,Bozeman,MT,59715,,No Data,
77,2300925,Gallatin,0,0,,0,,,2425 Arnica Dr,Bozeman,MT,59715,,No Data,
91,2300927,Big Horn,0,0,,0,,,,,,,,No Data,
78,2300930,Richland,47.5002451,-104.3221337,,0,,,11046 Hwy 16,Savage,MT,59262,,No Data,
92,2300935,Ravalli,0,0,,0,,,5162 E Side Hwy,Stevensville,MT,59870,,No Data,
79,2300937,Gallatin,0,0,,0,,,800 Parker Dr,Belgrade,MT,59714,,No Data,
93,2300940,Ravalli,45.512712,-113.533789,,0,MSU,,123 Circle M Dr,Sula,MT,59871,,No Data,
80,2300941,Gallatin,-45.81631964,-111.2405611,,209398,Homeowner,,17 Walking Horse Way,Belgrade,MT,59714,,No Data,
177,2300943,Fergus,47.044444,-109.4275,,0,,,167 NE Roundhouse Lp,Lewistown,MT,59457,,No Data,
178,2300945,Gallatin,47.304587,-107.951173,,0,,,PO Box 908,Bozeman,MT,59771,,No Data,
94,2300947,Fergus,47.21967,-109.85151,,0,,,5760 Hitchcock Rd,Denton,MT,59430,,No Data,
95,2300948,Ravalli,46.346719,-114.156633,,0,,,1383 Meridian Rd,Victor,MT,59875,,No Data,
81,2300949,Gallatin,0,0,,0,,,3475 Blackwood Rd,Bozeman,MT,59718,,No Data,
82,2300950,Jefferson,45.843764,-111.997604,,48419,Homeowner,,83 Parrot Ditch Rd,Whitehall,MT,59759,,No Data,
96,2300954,Richland,0,0,,0,,,12988 Country Rd 480,Richey,MT,59259,,No Data,
97,2300957,Big Horn,0,0,,0,MSU,,105 Hogan ln,Crow Agency,MT,59022,,No Data,
98,2300961,Big Horn,0,0,,0,,,4519 Backloop Rd,Wyola,MT,59089,,No Data,
83,2300968,Musselshell,46.635037,-108.573433,,0,,,13084 Hywy 85 N,Roundup,MT,59072,,No Data,
84,2300975,Gallatin,45.65076,-111.00051,,0,,,2605 Arnica Dr,Bozeman,MT,59715,,No Data,
99,2300978,Jefferson,45.7723,-112.1819,,234249,Homeowner,,12 Fraker Lp,Whitehall,MT,59759,,No Data,
100,2300980,Ravalli,46.37614,-114.0588,,0,,,2030 Mountain View Orchard,Corvallis,MT,59828,,No Data,
101,2300981,Dawson,0,0,,0,,,"North Richey, weld",Richey,MT,59259,,No Data,
85,2300985,Jefferson,46.253889,-112.140556,,320225,Homeowner,,2 Silverbell Rd,Boulder,MT,59632,,No Data,
102,2300986,Ravalli,0,0,,0,MSU,,611 Old Corvallis Rd,Corvallis,MT,59828,,No Data,
179,2300990,Ravalli,46.241363,-114.091247,,228171,Homeowner,,985 Tammany Ln,Hamilton,MT,59840,,No Data,
103,2300994,Ravalli,46.1714,-114.0527,,0,,,586 Little Sky Ln,Corvallis,Mt,59828,,No Data,
104,2300997,Stillwater,0,0,,0,,,1235 Countryman Crk,Reed Point,MT,59069,,No Data,
72,2301006,Gallatin,0,0,,0,,,355 Beaver MTN Tr,Gallatin Gateway,MT,59730,,No Data,
105,2301008,Ravalli,0,0,,0,MSU,,171 Lewis Ln,Hamilton,MT,59840,,No Data,
106,2301009,Big Horn,0,0,,0,,,12009 Hwy 451,Lodge Grass,MT,59050,,No Data,
107,2301010,Ravalli,46.28262,-114.0513,,0,,,655 Anchor Dr,Corvallis,MT,59828,,No Data,
86,2301012,Gallatin,45.6195,-111.05874,,96177,Homeowner,,1511 Driftwood Dr,Bozeman,MT,59715,,No Data,
108,2301018,Ravalli,46.114956,-114.240919,,0,,,2123 Caseys Trl,Hamilton,MT,59840,,No Data,
87,2301021,Gallatin,0,0,,,,,4790 Aspen Ln,Bozeman,MT,59715,,No Data,
109,2301022,Big Horn,0,0,,0,,,PO Box 22,Garryowen,MT,59031,,No Data,
110,2301027,Jefferson,45.868598,-111.945785,,0,MSU,,788 MT Hwy 2 E,Cardwell,MT,59721,,No Data,
111,2301030,Big Horn,0,0,,0,,,PO Box 171,Garryowen,MT,59031,,No Data,
112,2301033,Gallatin,45.82534,-110.87753,,0,,,550 Neuffer Creek Ln,Bozeman,MT,59715,,No Data,
180,2301036,Stillwater,0,0,,0,,,970 Shane Creek Rd,Columbus,MT,59019,,No Data,
88,2301043,Big Horn,0,0,,0,,,48 Long Rope Rd,Garryowen,MT,59031,,No Data,
89,2301044,Gallatin,0,0,,0,,,2570 Arnica Dr,Bozeman,MT,59715,,No Data,
90,2301046,Stillwater,0,0,,0,,,222 Whitebrid Cr Rd,Columbus,MT,59019,,No Data,
113,2301047,Big Horn,45.24361111,-107.5105556,,0,MSU,,9996 Lodge Grass Crk Rd,Lodge Grass,MT,59050,,No Data,
114,2301049,Big Horn,0,0,,0,,,PO Box 664,Lodge Grass,MT,59050,,No Data,
115,2301050,Big Horn,0,0,,0,,,PO Box 94,Garryowen,MT,59031,,No Data,
91,2301054,Big Horn,0,0,,0,,,PO Box 193,Garryowen,MT,59031,,No Data,
116,2301063,Big Horn,45.23888889,-107.495,,0,MSU,,PO Box 77,Lodge Grass,MT,59050,,No Data,
117,2301064,Big Horn,0,0,,0,,,PO Box 664,Lodge Grass,MT,59050,,No Data,
73,2301066,Gallatin,45.55795,-111.20211,,0,,,88 Low Bench Rd,Gallatin Gateway,MT,59730,,No Data,
118,2301067,Big Horn,0,0,,0,,,11447 Hwy 451,Lodge Grass,MT,59050,,No Data,
119,2301070,Gallatin,45.70302,-111.00852,,0,MSU,,2011 Bridger Dr,Bozeman,MT,59715,,No Data,
120,2301074,Big Horn,0,0,,0,MSU,,PO Box 113,Lodge Grass,MT,59050,,No Data,
121,2301077,Gallatin,45.66907,-110.99928,,0,MSU,,302 Sunset Blvd,Bozeman,MT,59715,,No Data,
122,2301080,Big Horn,0,0,,0,MSU,,64 Black Eagle Ln,Lodge Grass,MT,59050,,No Data,
123,2301094,Gallatin,45.78862,-111.23267,,0,MSU,,1219 Bulltail Rd,Belgrade,MT,59714,,No Data,
124,2301095,Big Horn,0,0,,0,,,PO Box 1064,Crow Agency,MT,59022,,No Data,
181,2301096,Stillwater,45.61185,-109.30552,,0,,,191 Stillwater Loop,Columbus,MT,59019,,No Data,
125,2301098,Gallatin,45.68182,-111.07215,,0,MSU,,211 N Western Dr,Bozeman,MT,59718,,No Data,
126,2301099,Big Horn,0,0,,0,MSU,,PO Box 191,Lodge Grass,MT,59050,,No Data,
92,2301109,Gallatin,45.616412,-111.05756,,96195,Homeowner,,1309 Wildflower Way,Bozeman,MT,59715,,No Data,
93,2301118,Ravalli,48.643216,-114.093944,,156449,Homeowner,,292 Tie Chute Ln,Florence,MT,59833,,No Data,
94,2301119,Gallatin,44.76381,-111.18227,,0,,,29 Bonneview Cir,West Yellowstone,MT,59758,,No Data,
95,2301135,Gallatin,45.708333,-110.868611,,0,,,4774 Aspen Ln,Bozeman,MT,59715,,No Data,
96,2301141,Ravalli,0,0,,0,,,466 Queens Way,Hamilton,MT,59840,,No Data,
97,2301142,Deer Lodge,46.185269,-113.253419,,327897,Homeowner,,71 Mule Deer Ln,Anaconda,MT,59711,,No Data,
98,2301143,Gallatin,45.61752,-111.001979,,163189,Homeowner,,1338 Triple Tree Rd,Bozeman,MT,59715,,No Data,
99,2301145,Ravalli,0,0,,0,,,1210 Tammany Ln,Hamilton,MT,59840,,No Data,
100,2301149,Ravalli,46.31347,-114.087974,,0,,,971 Oil Well Rd,Corvallis,MT,59828,,No Data,
182,2301154,Gallatin,45.789833,-111.226,,0,,,825 Bulltail Rd,Belgrade,MT,59714,,No Data,
101,2301157,Ravalli,46.241645,-114.147265,,0,,,277 S Sapphire St,Hamilton,MT,59840,,No Data,
183,2301158,Gallatin,45.65072,-111.02245,,0,,,2707 Highland Blvd,Bozeman,MT,59715,,No Data,
102,2301159,Gallatin,45.63324,-111.03158,,96768,Homeowner,,140 Hitching Post Rd,Bozeman,MT,59715,,No Data,
103,2301161,Ravalli,46.63508,-113.99072,,0,,,5855 Jaxsyn Ct,Florence,MT,59833,,No Data,
104,2301164,Gallatin,45.659,-110.9949,,96432,Homeowner,,842 Bald Eagle Dr,Bozeman,MT,59715,,No Data,
127,2301166,Ravalli,46.53685,-114.04523,,0,MSU,,4144 Grizzly Way,Stevensville,MT,59870,,No Data,
105,2301167,Gallatin,45.560556,-111.07,,0,,,11997 Hyalite Canyon Rd,Bozeman,MT,59718,,No Data,
106,2301168,Gallatin,45.64327,-110.9525,,0,,,1300 Mt Ellis Ln,Bozeman,MT,59715,,No Data,
107,2301171,Gallatin,45.604429,-111.014819,,0,,,9300 Noad Rd,Bozeman,MT,59715,,No Data,
108,2301176,Gallatin,45.833891,-110.999623,,0,,,8370 Forswall Rd,Belgrade,MT,59714,,No Data,
109,2301178,Gallatin,45.625896,45.625896,,0,,,2594 Star Ridge Rd,Bozeman,MT,59715,,No Data,
110,2301181,Ravalli,46.234839,-114.149679,,144718,Homeowner,,253 Roosevelt Ln,Hamilton,MT,59840,,No Data,
111,2301183,Ravalli,0,0,,0,,,835 Orchard Dr,Hamilton,MT,59840,,No Data,
128,2301188,Ravalli,46.276381,-114.029236,,0,,,1193 Hamilton Heights Rd,Corvallis,MT,59828,,No Data,
112,2301194,Gallatin,45.64734,-111.018416,,165413,Homeowner,,201 Ridge Trl,Bozeman,MT,59715,,No Data,
113,2301204,Jefferson,0,0,,0,,,141 Saddle Mtn Dr,Clancy,MT,59634,,No Data,
114,2301210,Broadwater,0,0,,0,,,200 Sheps Rd,Townsend,MT,59644,,No Data,
184,2301215,Beaverhead,45.418333,-113.108056,,0,,,115 Moose Run,Polaris,MT,59746,,No Data,
185,2301220,Jefferson,46.40453,-112.03341,,0,,,55 Bluebell Rd,Jefferson City,MT,59638,,No Data,
115,2301222,Gallatin,0,0,,0,,,1417 Robin Ln,Bozeman,MT,59715,,No Data,
129,2301223,Madison,0,0,,0,Homeowner,,26 Utley Ln,Twin Bridges,MT,59754,,No Data,
130,2301245,Big Horn,0,0,,0,MSU,,329 Lodge Rd,Lodge Grass,MT,59050,,No Data,
186,2301248,Jefferson,0,0,,0,,,112 Bear Gulch Rd,Basin,MT,59631,,No Data,
187,2301257,Park,45.895132,-110.521475,,147453,Homeowner,,54 Cooper Ln,Clyde Park,MT,59018,,No Data,
131,2301262,Big Horn,0,0,,0,MSU,,17298 S Hwy 451,Lodge Grass,MT,59050,,No Data,
132,2301267,Big Horn,0,0,,0,,,1662 SU Rd,Garryowen,MT,59031,,No Data,
133,2301274,Big Horn,45.22527778,-107.5322222,,0,MSU,,11727 Lodge Grass Crk Rd,Lodge Grass,MT,59050,,No Data,
134,2301275,Big Horn,0,0,,0,,,,,,,,No Data,
116,2301279,Big Horn,0,0,,0,,,7812 Little Horn Rd,Wyola,MT,59089,,No Data,
117,2301283,Carbon,45.41385,-109.42982,,0,,,718 Butcher Creek,Absarokee,MT,59901,,No Data,
118,2301289,Stillwater,0,0,,0,,,135 Spreading Winge Ln,Fishtail,MT,59028,,No Data,
119,2301290,Gallatin,45.61348,-111.00799,,0,,,760 Triple Tree Rd,Bozeman,MT,59715,,No Data,
135,2301292,Big Horn,45.58112,-107.44462,,0,,,PO Box 121,Crow Agency,MT,59022,,No Data,
120,2301293,Stillwater,0,0,,0,,,135 Spreading Winge Ln,Fishtail,MT,59028,,No Data,
121,2301294,Stillwater,0,0,,0,,,222 Whitebird Cr Rd,Columbus,MT,59019,,No Data,
122,2301297,Gallatin,45.739873,-111.148588,,325131,Homeowner,,383 Riparian Way,Bozeman,MT,59718,,No Data,
123,2301300,Fergus,47.044444,-109.413889,,0,,,167 NE Round House Loop,Lewistown,MT,59457,,No Data,
124,2301351,Cascade,47.545278,-111.606111,,0,,,400 US Hwy 89,Vaughn,MT,59487,,No Data,
125,2301369,Ravalli,46.29316,-114.14091,,0,,,731 Old Corvallis Rd,Corvallis,MT,59828,,No Data,
188,2301370,Gallatin,45.58639,-111.09522,,138786,Homeowner,,73 N Chickadee,Bozeman,MT,59718,,No Data,
126,2301373,Teton,47.77597,-111.74182,,0,,,PO Box 113,Power,MT,59468,,No Data,
127,2301375,Ravalli,46.384167,-114.187778,,0,,,1943 Middle Bear Creek Rd,Victor,MT,59875,,No Data,
128,2301379,Ravalli,46.550338,-113.960862,,0,,,1306 Bolin Ranch Rd,Stevensville,MT,59870,,No Data,
129,2301383,Ravalli,46.009417,-114.170067,,0,,,Little Dipper Ranch Hwy 93 S,Darby,MT,59829,,No Data,
189,2301397,Cascade,0,0,,0,,,604 Old Ulm Cascade Rd,Cascade,MT,59421,,No Data,
190,2301398,Gallatin,45.584814,-111.085217,,124923,Homeowner,,420 Meadowlark Dr,Bozeman,MT,59718,,No Data,
191,2301402,Gallatin,0,0,,0,,,293 Meadowlark Dr,Bozeman,MT,59718,,No Data,
192,2301406,Gallatin,0,0,,0,,,1381 Cougar Dr,Bozeman,MT,59718,,No Data,
130,2301419,Ravalli,46.195129,-114.126314,,278166,Homeowner,,528 Musket Ln,Hamilton,MT,59840,,No Data,
193,2301422,Gallatin,45.5855,-111.101333,,0,,,82 Owl Wy,Bozeman,MT,59718,,No Data,
194,2301427,Gallatin,45.583026,-111.089665,,133348,Homeowner,,568 Cougar Dr,Bozeman,MT,59718,,No Data,
195,2301432,Gallatin,45.630879,-111.036109,,96765,Homeowner,,7680 Goldenstein Ln,Bozeman,MT,59715,,No Data,
196,2301439,Gallatin,0,0,,0,,,106 N Pheasant Dr,Bozeman,MT,59718,,No Data,
131,2301445,Gallatin,45.651924,-111.000618,,326559,Homeowner,,2525 Arnica Dr,Bozeman,MT,59715,,No Data,
197,2301446,Gallatin,45.606807,-111.055556,,99271,Homeowner,,6360 S 3rd Rd,Bozeman,MT,59715,,No Data,
132,2301450,Gallatin,45.64643,-111.009592,,166273,Homeowner,,110 Canvas Ct,Bozeman,MT,59715,,No Data,
198,2301452,Gallatin,45.824833,-110.879417,,303784,Homeowner,,609 Neuffer Creek Rd,Bozeman,MT,59715,,No Data,
133,2301456,Gallatin,45.58929,-111.188661,,0,,,353 Holland Ln,Bozeman,MT,59718,,No Data,
134,2301458,Gallatin,45.647699,-111.008104,,0,,,125 McGee Dr,Bozeman,MT,59715,,No Data,
199,2301465,Gallatin,45.66955,-111.02997,,0,,,521 Ice Pond Rd,Bozeman,MT,59715,,No Data,
200,2301468,Park,0,0,,0,,,1043 Hwy 89 S,Gardiner,MT,59030,,No Data,
135,2301470,Gallatin,45.78278,-111.23676,,0,,,2430 Sheepshank Dr,Belgrade,MT,59714,,No Data,
201,2301475,Lake,0,0,,0,,,39050 McAlister Way,Polson,MT,59860,,No Data,
202,2301477,Gallatin,45.651117,-111.000269,,326559,Homeowner,,2525 Arnica Dr,Bozeman,MT,59715,,No Data,
203,2301479,Lake,47.536667,-114.228611,,207372,Homeowner,,41498 Bartel Ln,Ronan,MT,59864,,No Data,
136,2301497,Gallatin,0,0,,0,,,19 Riverside Dr,Bozeman,MT,59715,,No Data,
204,2301502,Gallatin,45.73086,-111.05508,,0,,,705 Stonegate Dr,Bozeman,MT,59715,,No Data,
205,2301503,Powell,0,0,,0,,,781 Aspen Ln,Gold Creek,MT,59733,,No Data,
137,2301510,Ravalli,46.347193,-114.194843,,331952,Homeowner,,561 Flicker Ln,Victor,MT,59875,,No Data,
206,2301514,Phillips,48.173159,-107.691775,,0,,,414 Swedes Sq,Malta,MT,59538,,No Data,
138,2301515,Gallatin,0,0,,0,,,,Bozeman,MT,59715,,No Data,
207,2301518,Phillips,48.217644,-107.604838,,0,,,NE 1/4 sec 6 T28N R32E,Malta,MT,59538,,No Data,
139,2301524,Gallatin,45.636667,-111.0275,,0,,,30 Hitching Post Rd,Bozeman,MT,59715,,No Data,
208,2301542,Ravalli,0,0,,0,,,2035 View Ln,Corvallis,MT,59828,,No Data,
209,2301554,Phillips,0,0,,0,,,54 1st Ave E,Whitewater,MT,59544,,No Data,
140,2301558,Ravalli,46.294722,-114.093889,,0,,,537 Jareds Way,Corvallis,MT,59828,,No Data,
210,2301563,Gallatin,45.647453,-111.000926,,0,,,138 Bennett Dr,Bozeman,MT,59715,,No Data,
141,2301565,Ravalli,46.364731,-114.07954,,0,,,770 Coyote Creek Dr,Corvallis,MT,59828,,No Data,
142,2301574,Dawson,47.118826,-104.747122,,210293,Homeowner,,Highland Park Subdivision,Glendive,MT,59330,,No Data,
143,2301575,Gallatin,0,0,,183936,Homeowner,,809 Yankee Creek Rd,Gallatin Gateway,MT,59730,,No Data,
144,2301577,Dawson,0,0,,0,,,525 Juniper Ave,Glendive,MT,59330,,No Data,
211,2301603,Ravalli,0,0,,0,,,1925 Middle Bear Ck Rd,Victor,MT,59875,,No Data,
212,2301620,Ravalli,0,0,,0,,,2050 Oceanfront Dr,Corvallis,MT,59828,,No Data,
213,2301631,Gallatin,45.579485,-111.088072,,0,,,1374 Cougar Dr,Bozeman,MT,59718,,No Data,
214,2301643,Ravalli,0,0,,0,,,2211 Pleasant View Dr,Victor,MT,59875,,No Data,
215,2301647,Gallatin,45.586944,-111.100833,,0,,,115 N Pheasant Dr,Bozeman,MT,59718,,No Data,
216,2301654,Gallatin,45.630879,-111.036109,,96765,Homeowner,,7680 Goldenstein Ln,Bozeman,MT,59715,,No Data,
217,2301655,Gallatin,45.58793,-111.09027,,0,,,75 Meadowlark Dr,Bozeman,MT,59718,,No Data,
218,2301671,Flathead,0,0,,0,,,Kalispell City Water,Kalispell,MT,59901,,No Data,
219,2301679,Gallatin,45.585167,-111.101833,,0,,,55 Owl Way,Bozeman,MT,59718,,No Data,
220,2301681,Gallatin,45.586263,-111.096948,,0,,,92 Bluebird Dr,Bozeman,MT,59718,,No Data,
221,2301683,Gallatin,45.583134,-111.091277,,0,,,54 Ricky Dr,Bozeman,MT,59718,,No Data,
222,2301685,Gallatin,45.58245,-111.091244,,124048,Homeowner,,610 Cougar Dr,Bozeman,MT,59718,,No Data,
223,2301697,Ravalli,0,0,,0,,,340 Eagle Feather Ln,Victor,MT,59875,,No Data,
224,2301703,Gallatin,45.57578,-111.09064,,0,Homeowner,,1131 Cougar Dr,Bozeman,MT,59718,,No Data,
225,2301711,Gallatin,0,0,,0,,,25 S Chickadee Way,Bozeman,MT,59718,,No Data,
226,2301715,Ravalli,0,0,,0,,,190 Merlin Watch,Hamilton,MT,59840,,No Data,
227,2301720,Glacier,0,0,,0,,,240 Hoyt Rd,Cut Bank,MT,59427,,No Data,
228,2301727,Gallatin,45.577,-111.090194,,288649,Homeowner,,1174 Cougar Dr,Bozeman,MT,59718,,No Data,
229,2301731,Gallatin,45.586389,-111.0875,,0,,,254 Meadowlark Dr,Bozeman,MT,59718,,No Data,
230,2301735,Gallatin,45.58439,-111.090963,,99438,Homeowner,,499 Cougar Dr,Bozeman,MT,59718,,No Data,
231,2301760,Carbon,45.2101,-109.3159,,0,,,161 Gabrian Rd,Red Lodge,MT,59068,,No Data,
145,2301766,Ravalli,46.350844,-114.217267,,0,,,821 Fred Burr Rd,Victor,MT,59875,,No Data,
232,2301776,Carbon,45.2101,-109.3159,,0,,,161 Gabrian Rd,Red Lodge,MT,59068,,No Data,
146,2301778,Dawson,47.111447,-104.747122,,29136,Homeowner,,710 W Thrush Ln,Glendive,MT,59330,,No Data,
147,2301782,Dawson,47.119257,-104.682512,,0,,,402 Petroleum Dr #5,Glendive,MT,59330,,No Data,
233,2301795,Glacier,0,0,,0,,,393 Old Kevin Hwy,Cut Bank,MT,59427,,No Data,
148,2301796,Ravalli,46.301583,-114.166333,,0,,,835 Orchard Dr,Hamilton,MT,59840,,No Data,
234,2301799,Teton,47.98594,-112.26393,,0,,,1290 26th Rd NW,Bynum,MT,59419,,No Data,
235,2301811,Glacier,0,0,,0,,,393 Old Kevin Hwy,Cut Bank,MT,59427,,No Data,
236,2301821,Carbon,45.220601,-109.257281,,0,,,19 Eveningstar St,Red Lodge,MT,59068,,No Data,
237,2301823,Ravalli,46.558751,-114.200761,,0,,,149 Spiritwood Rd,Victor,MT,59875,,No Data,
238,2301827,Hill,48.317887,-110.017802,,0,,,305 2nd St SW,Box Elder,MT,59521,,No Data,
239,2301933,Powder River,0,0,,0,,,107 Ponderosa Trl,Ashland,MT,59003,,No Data,
240,2301936,Musselshell,46.329444,-108.574722,,0,,,5 Secor Rd,Roundup,MT,59072,,No Data,
241,2301944,Musselshell,0,0,,0,,,807 Majerus Rd,Roundup,MT,59072,,No Data,
242,2301955,Musselshell,0,0,,0,,,18973 Hwy 12 East,Musselshell,MT,59059,,No Data,
243,2302009,Ravalli,0,0,,0,,,163 Laird Cr,Conner,MT,59827,,No Data,
